{"type":"FeatureCollection","features":[{"type":"Feature","properties":{"id":1,"name":"Graduation Bucky","image":"stop1.png","Location":"Bascom Hall","Address":"Bascom Hall, 500 Lincoln Dr, Madison, WI 53706"},"geometry":{"type":"Point","coordinates":[-89.40361063,43.07586759]}},{"type":"Feature","properties":{"id":2,"name":"Game Day Bucky","image":"stop2.png","Location":"University Book Store","Address":"711 State St"},"geometry":{"type":"Point","coordinates":[-89.3977582,43.07481678]}},{"type":"Feature","properties":{"id":3,"name":"Ringo 2.0","image":"stop3.png","Location":"State Street Brat","Address":" 603 State St, Madison"},"geometry":{"type":"Point","coordinates":[-89.39593367,43.07492672]}},{"type":"Feature","properties":{"id":4,"name":"Ringo","image":"stop4.png","Location":"Lowell Center","Address":"610 Langdon St, Madison, WI 53703"},"geometry":{"type":"Point","coordinates":[-89.39478282,43.0762285]}},{"type":"Feature","properties":{"id":5,"name":"Bucky How'd You Get So FLY?\",Kollege klub\"","image":"stop5.png","Location":"529 N Lake St, Madison","Address":"529 N Lake St, Madison"},"geometry":{"type":"Point","coordinates":[-89.39365576,43.07612334]}},{"type":"Feature","properties":{"id":6,"name":"Friday Night Fish Fry","image":"stop6.png","Location":"The Edgewater Hotel","Address":"1001 Wisconsin Pl, Madison, WI 53703"},"geometry":{"type":"Point","coordinates":[-89.38898513,43.07956259]}},{"type":"Feature","properties":{"id":7,"name":"Pieces of Wisconsin","image":"stop7.png","Location":"The Madison Concourse Hotel and Governorâ€™s Club","Address":"1 W Dayton St, Madison, WI 53703"},"geometry":{"type":"Point","coordinates":[-89.38496948,43.07646646]}},{"type":"Feature","properties":{"id":8,"name":"Bucky.exe","image":"stop8.png","Location":"UW Credit Union","Address":"44 E Mifflin St, Madison, WI 53703"},"geometry":{"type":"Point","coordinates":[-89.38420493,43.07638492]}},{"type":"Feature","properties":{"id":9,"name":"Jump Around Bucky","image":"stop9.png","Location":"The Great Dane Pub & Brewing Company","Address":"123 E Doty St, Madison, WI 53703"},"geometry":{"type":"Point","coordinates":[-89.37941026,43.07457994]}},{"type":"Feature","properties":{"id":10,"name":"Pucky","image":"end.png","Location":"Hampton Inn & Suites Madison / Downtown","Address":"440 W Johnson St, Madison, WI 53703"},"geometry":{"type":"Point","coordinates":[-89.38983503,43.07284572]}}]}